[
  {
    "id": 1740,
    "lang": "zh-tw",
    "name": "助仔牛肉湯",
    "summary": "台南的牛肉湯多半從凌晨賣到午後，這是為了因應早期勞動社會，工人們早起上工，需要吃些份量足的肉類早餐，以儲備體力。助仔牛肉湯原本是大菜市裡的老店，後來遷至安平，營業時間由凌晨四點半至下午兩點。店內的招牌是紅麴牛肉羹，內含多樣牛肉及內臟的綜合羹更是內行老客人愛點的。有機會來到安平，別忘了來碗豐富營養的牛肉羹，讓你預先補足體力，輕鬆遊安平。",
    "introduction": "台南的牛肉湯多半從凌晨賣到午後，這是為了因應早期勞動社會，工人們早起上工，需要吃些份量足的肉類早餐，以儲備體力。助仔牛肉湯原本是大菜市裡的老店，後來遷至安平，營業時間由凌晨四點半至下午兩點。店內的招牌是紅麴牛肉羹，內含多樣牛肉及內臟的綜合羹更是內行老客人愛點的。有機會來到安平，別忘了來碗豐富營養的牛肉羹，讓你預先補足體力，輕鬆遊安平。",
    "open_time": "週一~週日 04:30–21:00，週二休息",
    "district": "安平區",
    "address": "708 臺南市安平區安平路 624 號",
    "tel": "+886-6-2410201",
    "fax": "",
    "lat": 22.99911,
    "long": 120.16859,
    "services": [],
    "category": [
      "地方小吃"
    ],
    "consume": [
      "美食"
    ],
    "update_time": "2022-12-05 15:45:54"
  },
  {
    "id": 1947,
    "lang": "zh-tw",
    "name": "新營李家宇航牛肉湯",
    "summary": "新營李家宇航牛肉湯，\r\n在傳統中帶一點創意，\r\n在平凡中尋找一絲驚奇，\r\n持續堅持與不斷的努力，\r\n只為了讓您留下純真美味的記憶！\r\n本店每個禮拜都會推出一道風味菜，菜色結合多樣的變化，使本店貴賓常常有新口味料理可嚐鮮！",
    "introduction": "新營李家宇航牛肉湯，\r\n在傳統中帶一點創意，\r\n在平凡中尋找一絲驚奇，\r\n持續堅持與不斷的努力，\r\n只為了讓您留下純真美味的記憶！\r\n本店每個禮拜都會推出一道風味菜，菜色結合多樣的變化，使本店貴賓常常有新口味料理可嚐鮮！",
    "open_time": "週二~週六 11:00–14:00、17:00–21:00 週日 16:00–21:00，週一休息",
    "district": "新營區",
    "address": "730 臺南市新營區中正路 33-6 號",
    "tel": "+886-6-6322872",
    "fax": "",
    "lat": 23.31237,
    "long": 120.3166,
    "services": [],
    "category": [
      "地方小吃"
    ],
    "consume": [
      "美食"
    ],
    "update_time": "2022-12-05 15:36:35"
  },
  {
    "id": 2045,
    "lang": "zh-tw",
    "name": "信仔牛肉湯",
    "summary": "信仔牛肉採用新鮮蔬果與獨家中藥秘方熬煮湯頭，特殊湯頭搭配呈現漂亮櫻花色的新鮮上等牛肉，真的是視覺與味覺的上的大大享受！",
    "introduction": "信仔牛肉採用新鮮蔬果與獨家中藥秘方熬煮湯頭，特殊湯頭搭配呈現漂亮櫻花色的新鮮上等牛肉，真的是視覺與味覺的上的大大享受！",
    "open_time": "週一~週日 07:00-20:00，週二休息",
    "district": "安定區",
    "address": "745 臺南市安定區 178 縣道 58-38 號",
    "tel": "+886-6-5922577",
    "fax": "",
    "lat": 23.12011,
    "long": 120.23602,
    "services": [],
    "category": [
      "地方小吃"
    ],
    "consume": [
      "美食"
    ],
    "update_time": "2024-11-25 08:32:46"
  },
  {
    "id": 2048,
    "lang": "zh-tw",
    "name": "品牛牛肉湯",
    "summary": "品牛牛肉湯是由一對熱情的夫妻經營，老闆為了讓客人吃到最新鮮的牛肉湯，堅持一天進牛肉兩次 (上、下午各一次)，所有的食材菜色都不添加人工味素，就是要求最簡單的美味送達客人口中。\r\n牛肉湯頭極為鮮甜，再搭配湯中的新鮮牛肉片，美味 CP 值極高。老闆還特製了牛豬肉搭配一起的肉燥飯，就如同日本的牛丼飯，只要點牛肉湯，就會附上一碗肉燥飯，老闆根本就是佛心來的。店內還有特別的牛尾火鍋要事先預定，另外吃完還可以買個零食，店內的牛肉乾也很好吃。",
    "introduction": "品牛牛肉湯是由一對熱情的夫妻經營，老闆為了讓客人吃到最新鮮的牛肉湯，堅持一天進牛肉兩次 (上、下午各一次)，所有的食材菜色都不添加人工味素，就是要求最簡單的美味送達客人口中。\r\n牛肉湯頭極為鮮甜，再搭配湯中的新鮮牛肉片，美味 CP 值極高。老闆還特製了牛豬肉搭配一起的肉燥飯，就如同日本的牛丼飯，只要點牛肉湯，就會附上一碗肉燥飯，老闆根本就是佛心來的。店內還有特別的牛尾火鍋要事先預定，另外吃完還可以買個零食，店內的牛肉乾也很好吃。",
    "open_time": "週二~週日 11:00–22:00，週一休息",
    "district": "安南區",
    "address": "709 臺南市安南區海佃路 2 段 422 號",
    "tel": "+886-6-2451517",
    "fax": "",
    "lat": 23.03867,
    "long": 120.18829,
    "services": [],
    "category": [
      "地方小吃"
    ],
    "consume": [
      "美食"
    ],
    "update_time": "2022-12-05 15:35:43"
  },
  {
    "id": 2105,
    "lang": "zh-tw",
    "name": "清香牛肉湯",
    "summary": "只做上午時段生意，自載販售最新鮮台南溫體牛肉，生意好的往往上午九點就售罄。\r\n第三代的年輕老闆與老闆娘接手 9 年的時間，吸引眾多厝邊老主顧。店內肉品來源、認證等資訊公開透明化，讓顧客安心放心。強調衛生條件，手套、口罩、帽子皆為老闆基本裝備。\r\n以牛骨、蘋果、甘蔗等食材熬煮牛肉湯，術業專精，專做牛肉湯與牛腩湯，是鄰里巷仔內最優質的美食。",
    "introduction": "只做上午時段生意，自載販售最新鮮台南溫體牛肉，生意好的往往上午九點就售罄。\r\n第三代的年輕老闆與老闆娘接手 9 年的時間，吸引眾多厝邊老主顧。店內肉品來源、認證等資訊公開透明化，讓顧客安心放心。強調衛生條件，手套、口罩、帽子皆為老闆基本裝備。\r\n以牛骨、蘋果、甘蔗等食材熬煮牛肉湯，術業專精，專做牛肉湯與牛腩湯，是鄰里巷仔內最優質的美食。",
    "open_time": "週一~週日 06:15–11:30，週二休息",
    "district": "東區",
    "address": "701 臺南市東區仁東街 72 號",
    "tel": "+886-6-2604512",
    "fax": "",
    "lat": 22.97016,
    "long": 120.2366,
    "services": [],
    "category": [
      "地方小吃"
    ],
    "consume": [
      "美食"
    ],
    "update_time": "2022-12-27 17:37:11"
  },
  {
    "id": 2260,
    "lang": "zh-tw",
    "name": "鴻品牛肉湯",
    "summary": "鴻品牛肉開業至今，強調店內的牛肉都由善化屠宰場何隔業者現宰新鮮運送，針對品質的堅持從牛肉湯就可品嚐出細心熬煮，鴻品牛肉湯的溫體牛肉共分精選/極品/霜降等 3 級，另外來到店裡的客人必點台灣牛超人氣牛肉爐，可選擇各部位牛肉，吃出牛肉不同的口感，想要品嚐超人氣牛肉爐，請記得先訂位哦！",
    "introduction": "鴻品牛肉開業至今，強調店內的牛肉都由善化屠宰場何隔業者現宰新鮮運送，針對品質的堅持從牛肉湯就可品嚐出細心熬煮，鴻品牛肉湯的溫體牛肉共分精選/極品/霜降等 3 級，另外來到店裡的客人必點台灣牛超人氣牛肉爐，可選擇各部位牛肉，吃出牛肉不同的口感，想要品嚐超人氣牛肉爐，請記得先訂位哦！",
    "open_time": "週二~週日 11:00-14:00、16:00-22:00，週一休息",
    "district": "永康區",
    "address": "710 臺南市永康區大安街 288 號",
    "tel": "+886-6-2055243",
    "fax": "",
    "lat": 23.00898,
    "long": 120.26559,
    "services": [],
    "category": [
      "地方小吃"
    ],
    "consume": [
      "美食"
    ],
    "update_time": "2022-12-05 15:37:02"
  },
  {
    "id": 6477,
    "lang": "zh-tw",
    "name": "勝立牛肉湯",
    "summary": "主角高湯湯頭以及牛肉，選用台南當日清晨現宰產地直送的溫體牛肉，勝立牛肉清湯的高湯湯頭主要是用大量牛大骨熬製，加上秘制配方、本地洋蔥及半筋半肉的牛腩熬煮一整天，煮出牛肉膠質以及香甜不膩的口味，甜的滋味讓牛肉湯口感豐富。\r\n牛肉的部分採用台南當地每日現宰溫體牛，新鮮度絕對是掛保證，另外早起的人客還有機會吃到隱藏版的\"油花條肉\"半肥半瘦的軟嫩口感，因為新鮮度夠嚼起來肉質 Q 彈，油花部分入口即化，是熟客老饕的最愛。\r\n推薦特色菜：限量！隱藏特色菜－油花條肉、土產手切薑絲\r\n每日限量，菜單找不到的特色菜，牛排骨旁部位，不僅肉質好，軟筋口感有彈性，油花分布均勻不油膩。",
    "introduction": "主角高湯湯頭以及牛肉，選用台南當日清晨現宰產地直送的溫體牛肉，勝立牛肉清湯的高湯湯頭主要是用大量牛大骨熬製，加上秘制配方、本地洋蔥及半筋半肉的牛腩熬煮一整天，煮出牛肉膠質以及香甜不膩的口味，甜的滋味讓牛肉湯口感豐富。\r\n牛肉的部分採用台南當地每日現宰溫體牛，新鮮度絕對是掛保證，另外早起的人客還有機會吃到隱藏版的&quot;油花條肉&quot;半肥半瘦的軟嫩口感，因為新鮮度夠嚼起來肉質 Q 彈，油花部分入口即化，是熟客老饕的最愛。\r\n推薦特色菜：限量！隱藏特色菜－油花條肉、土產手切薑絲\r\n每日限量，菜單找不到的特色菜，牛排骨旁部位，不僅肉質好，軟筋口感有彈性，油花分布均勻不油膩。",
    "open_time": "週一~週日 06:00–13:30，週二休息",
    "district": "永康區",
    "address": "710 臺南市永康區勝學路 88 號",
    "tel": "+886-919-161820",
    "fax": "",
    "lat": 23.00363,
    "long": 120.23091,
    "services": [],
    "category": [
      "地方小吃"
    ],
    "consume": [
      "美食"
    ],
    "update_time": "2022-12-05 15:29:23"
  },
  {
    "id": 6479,
    "lang": "zh-tw",
    "name": "西羅殿牛肉湯",
    "summary": "台南牛肉湯加入台灣冬粉大勝越南河粉，論肉質台灣溫體牛肉當然比澳洲牛好，店內提供的「強力椒」是自製辣椒醬，辣度夠不會難入喉。\r\n推薦特色菜：牛肉冬粉、強力椒",
    "introduction": "",
    "open_time": "週一~週日 05:00-13:00，週二休息",
    "district": "北區",
    "address": "704 臺南市北區公園南路 98 號",
    "tel": "+886-6-2294056",
    "fax": "",
    "lat": 23.00102,
    "long": 120.20841,
    "services": [],
    "category": [
      "地方小吃"
    ],
    "consume": [
      "美食"
    ],
    "update_time": "2022-12-05 15:29:21"
  },
  {
    "id": 6480,
    "lang": "zh-tw",
    "name": "台南市牛家莊牛肉湯",
    "summary": "日本泡飯搭配嚴選溫體牛筋、牛腩、牛舌及牛心四個部位，加上天然、健康大骨及蔬果熬製的湯頭，老闆信心表示回流率超高。\r\n推薦特色菜：大雜泡飯",
    "introduction": "",
    "open_time": "週一~週日 06:00–13:00、17:00–20:00，週二休息",
    "district": "中西區",
    "address": "700 臺南市中西區永華路一段 108 號 ",
    "tel": "+886-6-2222406",
    "fax": "",
    "lat": 22.98788,
    "long": 120.1941,
    "services": [],
    "category": [
      "地方小吃"
    ],
    "consume": [
      "美食"
    ],
    "update_time": "2022-12-05 15:29:19"
  },
  {
    "id": 6481,
    "lang": "zh-tw",
    "name": "阿財牛肉湯",
    "summary": "        店家地點位處安平老街上，20 幾年的歷史老店，24 小時的營業時間，讓民眾在任何時段都能享用到最新鮮的溫體牛肉，因此培養出眾多忠實老客戶，又因鄰近安平各古蹟區，觀光客也紛將此店家列入朝聖行程之一。招牌牛肉湯高湯以牛骨、牛肉、蔬菜等食材熬煮。特色餐點為紅燒牛肉麵，可吃到與牛肉湯完全不同風格的紅燒口味；滷酒香牛腱更是內行饕客必點與外帶的配菜點心；牛肉火鍋的火鍋料也有店家手工現打花枝漿、蝦仁漿等精緻用心食材，就等您來品味。\r\n\r\n        顧客點菜率極高的招牌菜，炒飯步驟 SOP 三階段不同於一般炒飯，不僅飯粒分明、青菜口感脆，更加入洋蔥及雞蛋使炒飯更香，令人回味無窮。\r\n推薦特色菜：牛肉蛋炒飯",
    "introduction": "&nbsp; &nbsp; &nbsp; &nbsp; 店家地點位處安平老街上，20 幾年的歷史老店，24 小時的營業時間，讓民眾在任何時段都能享用到最新鮮的溫體牛肉，因此培養出眾多忠實老客戶，又因鄰近安平各古蹟區，觀光客也紛將此店家列入朝聖行程之一。招牌牛肉湯高湯以牛骨、牛肉、蔬菜等食材熬煮。特色餐點為紅燒牛肉麵，可吃到與牛肉湯完全不同風格的紅燒口味；滷酒香牛腱更是內行饕客必點與外帶的配菜點心；牛肉火鍋的火鍋料也有店家手工現打花枝漿、蝦仁漿等精緻用心食材，就等您來品味。\r\n\r\n&nbsp; &nbsp; &nbsp; &nbsp; 顧客點菜率極高的招牌菜，炒飯步驟 SOP 三階段不同於一般炒飯，不僅飯粒分明、青菜口感脆，更加入洋蔥及雞蛋使炒飯更香，令人回味無窮。\r\n推薦特色菜：牛肉蛋炒飯",
    "open_time": "週一~週日 11:00–01:00",
    "district": "安平區",
    "address": "708 臺南市安平區古堡街 5 號",
    "tel": "+886-6-2261252",
    "fax": "",
    "lat": 22.99948,
    "long": 120.16149,
    "services": [],
    "category": [
      "地方小吃"
    ],
    "consume": [
      "美食"
    ],
    "update_time": "2022-12-05 15:29:17"
  },
  {
    "id": 6482,
    "lang": "zh-tw",
    "name": "安平林牛肉湯",
    "summary": "湯頭淋滿蒜苗在台南極為少見，為林家偏甘甜洋蔥搭配蘋果的蔬果湯頭又再上一層層次感。\r\n推薦特色菜：蒜苗牛肉湯",
    "introduction": "",
    "open_time": "週一 - 週日 24 小時營業、週四 04:00-17:00",
    "district": "安平區",
    "address": "708 臺南市安平區平生路 13 號",
    "tel": "+886-6-2216966",
    "fax": "",
    "lat": 22.9993,
    "long": 120.16369,
    "services": [],
    "category": [
      "地方小吃"
    ],
    "consume": [
      "美食"
    ],
    "update_time": "2022-12-05 15:29:15"
  },
  {
    "id": 6483,
    "lang": "zh-tw",
    "name": "億哥牛肉湯後甲店（南紡）",
    "summary": "目前台南唯一寫在菜單的嘴邊肉湯，口感 Q 彈又鬆軟，嘴邊肉搭配醬油與蔥末味道搭，湯頭有薑絲調味味道稍微濃又不搶味。\r\n推薦特色菜：嘴邊肉湯",
    "introduction": "",
    "open_time": "24HR",
    "district": "東區",
    "address": "701 臺南市東區裕農路 574 號",
    "tel": "+886-6-2602990",
    "fax": "",
    "lat": 22.98826,
    "long": 120.23436,
    "services": [],
    "category": [
      "地方小吃"
    ],
    "consume": [
      "美食"
    ],
    "update_time": "2022-12-05 15:29:12"
  },
  {
    "id": 6488,
    "lang": "zh-tw",
    "name": "肯牛城牛肉湯",
    "summary": "裝潢頗有西餐架勢，選用台南在地關廟鳳梨水果入菜，酸度夠口感也很好，在台南牛肉湯界很稀有而且超下飯。\r\n推薦特色菜：鳳梨炒牛肉",
    "introduction": "裝潢頗有西餐架勢，選用台南在地關廟鳳梨水果入菜，酸度夠口感也很好，在台南牛肉湯界很稀有而且超下飯。\r\n推薦特色菜：鳳梨炒牛肉",
    "open_time": "週一~週日 10:30–15:00、16:30–21:00，週二休息",
    "district": "歸仁區",
    "address": "711 臺南市歸仁區和平北街 40 號",
    "tel": "+886-6-2300555",
    "fax": "",
    "lat": 22.96813,
    "long": 120.29632,
    "services": [],
    "category": [
      "地方小吃"
    ],
    "consume": [
      "美食"
    ],
    "update_time": "2022-12-05 15:29:08"
  },
  {
    "id": 6489,
    "lang": "zh-tw",
    "name": "圓環牛肉湯 ",
    "summary": "老店才有的紅糟牛肉，老闆娘表示：「我們家的紅糟添加紅麴，屬於食補，口味也是特別的微酸微甜南部口味。」\r\n推薦特色菜：紅糟牛肉焿",
    "introduction": "老店才有的紅糟牛肉，老闆娘表示：「我們家的紅糟添加紅麴，屬於食補，口味也是特別的微酸微甜南部口味。」\r\n推薦特色菜：紅糟牛肉焿",
    "open_time": "週一~週日 04:00–13:30，週二休息",
    "district": "中西區",
    "address": "700 臺南市中西區府前路二段 153 號 ",
    "tel": "+886-910-743200",
    "fax": "",
    "lat": 22.99117,
    "long": 120.19364,
    "services": [],
    "category": [
      "地方小吃"
    ],
    "consume": [
      "美食"
    ],
    "update_time": "2022-12-05 15:29:05"
  },
  {
    "id": 6491,
    "lang": "zh-tw",
    "name": "潘家牛肉湯",
    "summary": "",
    "introduction": "&nbsp; &nbsp; &nbsp; 由於老闆娘的先生本身就是台南溫體牛肉的派送員，所以每天都能提供客人最新鮮的牛肉。高湯的部分是由牛大骨、水果、洋蔥、老薑等細細燉煮，堅持提供最原汁原味的清燙牛肉湯給客人品嚐。此外老闆娘教大家品嚐時，先喝一口原味清湯，接著再加一點米酒提味，更是另一種截然不同的滋味呢！店裡還有另一道富含膠質的招牌菜－涼拌牛腩，在老闆娘專業的燉煮下，軟嫩適中的口感，再搭上一碗肉燥飯，保證讓您食指大動、胃口全開喔！\r\n推薦菜色：清燙牛肉湯、涼拌牛腩、芥藍炒牛肉",
    "open_time": "週二~週日 08:30–22:30，週一休息",
    "district": "中西區",
    "address": "700 臺南市中西區國華街 3 段 125 號",
    "tel": "+886-932-831029",
    "fax": "",
    "lat": 22.99674,
    "long": 120.19831,
    "services": [],
    "category": [
      "地方小吃"
    ],
    "consume": [
      "美食"
    ],
    "update_time": "2022-12-05 15:28:59"
  },
  {
    "id": 6493,
    "lang": "zh-tw",
    "name": "忠嫂牛肉湯",
    "summary": "        將近 10 年營業歷史，累積眾多忠實顧客，招牌牛肉湯湯頭，以牛骨、甘蔗、楊聰與牛腩等食材熬煮。老闆娘熱心親切，小小店面蘊含著滿滿溫暖。\r\n\r\n        涼拌洋蔥、涼拌酸辣牛肉，特製酸辣醬料，點綴襯托出新鮮食材原汁原味，爽口又沒負擔，可稱之最貼近人心的開胃小菜。肉燥飯肥肉比例較高，油而不膩，完全入味，以瓷碗盛裝，油油亮亮、完美呈現。",
    "introduction": "&nbsp; &nbsp; &nbsp; &nbsp; 將近 10 年營業歷史，累積眾多忠實顧客，招牌牛肉湯湯頭，以牛骨、甘蔗、楊聰與牛腩等食材熬煮。老闆娘熱心親切，小小店面蘊含著滿滿溫暖。\r\n\r\n&nbsp; &nbsp; &nbsp; &nbsp; 涼拌洋蔥、涼拌酸辣牛肉，特製酸辣醬料，點綴襯托出新鮮食材原汁原味，爽口又沒負擔，可稱之最貼近人心的開胃小菜。肉燥飯肥肉比例較高，油而不膩，完全入味，以瓷碗盛裝，油油亮亮、完美呈現。",
    "open_time": "週二~週日 17:00-22:00，週一休息",
    "district": "東區",
    "address": "701 臺南市東區仁和路 79 號",
    "tel": "+886-929-692948",
    "fax": "",
    "lat": 22.97356,
    "long": 120.23191,
    "services": [],
    "category": [
      "地方小吃"
    ],
    "consume": [
      "美食"
    ],
    "update_time": "2018-12-13 15:41:57"
  },
  {
    "id": 6494,
    "lang": "zh-tw",
    "name": "崇德牛肉湯",
    "summary": "       自營牧場高品質把關的優勢，在崇德市場走過 30 個年頭，亦為全市場唯一提供販售牛肉湯的攤商。以牛骨、牛腩、蔬果等食材熬煮湯頭，讓招牌牛肉湯富有層次感，每一瓢羹都是鮮甜的滋味。此外，由於自營自宰牧場，從牛頭到牛尾皆可接受客互預訂，店攤也販售新鮮溫體牛肉，可供民眾自行購買回家料理。特製紅燒牛腩料理包，便利的美味，更深受家庭主婦喜愛。於店內點購 100 元湯品，即贈送白飯一碗，星期六日更免費提供牛肉肉燥飯，大塊牛肉片覆蓋，可稱之為最有靈魂的一碗牛肉肉燥飯。\r\n\r\n推薦特色菜：清燙牛肉湯、清燉/紅燒牛腩湯、牛肝湯、滷味 (牛腱、牛筋、牛肚)、本產牛肉乾",
    "introduction": "&nbsp; &nbsp; &nbsp; &nbsp;自營牧場高品質把關的優勢，在崇德市場走過 30 個年頭，亦為全市場唯一提供販售牛肉湯的攤商。以牛骨、牛腩、蔬果等食材熬煮湯頭，讓招牌牛肉湯富有層次感，每一瓢羹都是鮮甜的滋味。此外，由於自營自宰牧場，從牛頭到牛尾皆可接受客互預訂，店攤也販售新鮮溫體牛肉，可供民眾自行購買回家料理。特製紅燒牛腩料理包，便利的美味，更深受家庭主婦喜愛。於店內點購 100 元湯品，即贈送白飯一碗，星期六日更免費提供牛肉肉燥飯，大塊牛肉片覆蓋，可稱之為最有靈魂的一碗牛肉肉燥飯。\r\n\r\n推薦特色菜：清燙牛肉湯、清燉/紅燒牛腩湯、牛肝湯、滷味 (牛腱、牛筋、牛肚)、本產牛肉乾",
    "open_time": "週一~週日 06:00-12:30，農曆 17 日休息",
    "district": "東區",
    "address": "701 臺南市東區榮譽街 290 巷 42 號",
    "tel": "+886-6-2606437",
    "fax": "",
    "lat": 22.97688,
    "long": 120.22242,
    "services": [],
    "category": [
      "地方小吃"
    ],
    "consume": [
      "美食"
    ],
    "update_time": "2022-12-05 15:28:57"
  },
  {
    "id": 6495,
    "lang": "zh-tw",
    "name": "吳家土產牛肉湯",
    "summary": "",
    "introduction": "&nbsp; &nbsp; &nbsp; &nbsp; 招牌",
    "open_time": "週二~週日 17:00–02:00，週一休息",
    "district": "東區",
    "address": "701 臺南市東區中華東路一段 145 號",
    "tel": "+886-6-2742092",
    "fax": "",
    "lat": 22.99136,
    "long": 120.23404,
    "services": [],
    "category": [
      "地方小吃"
    ],
    "consume": [
      "美食"
    ],
    "update_time": "2022-12-05 15:28:54"
  },
  {
    "id": 6496,
    "lang": "zh-tw",
    "name": "阿家牛肉湯",
    "summary": "        如果你想要吃便宜又大碗的牛肉湯，來吃「阿家牛肉湯」就對了！當初老闆就是因為太愛吃牛肉湯，但又覺得目前的牛肉湯店都太市儈，於是決定自己開店。也因為秉持著這樣的堅持，老闆的牛肉湯分量比一般的牛肉湯來的大許多，加上用牛大骨及甘蔗汁燉煮的鮮甜高湯，總能讓「過客」一試成「主顧」。\r\n\r\n​        除了賣牛肉湯，也賣您濃濃的人情味，歡迎您來喝碗牛肉湯，也跟老闆交個朋友吧！\r\n\r\n推薦特色菜：清燙牛肉湯、牛腩高麗菜、牛肉炒芥藍",
    "introduction": "&nbsp; &nbsp; &nbsp; &nbsp; 如果你想要吃便宜又大碗的牛肉湯，來吃「阿家牛肉湯」就對了！當初老闆就是因為太愛吃牛肉湯，但又覺得目前的牛肉湯店都太市儈，於是決定自己開店。也因為秉持著這樣的堅持，老闆的牛肉湯分量比一般的牛肉湯來的大許多，加上用牛大骨及甘蔗汁燉煮的鮮甜高湯，總能讓「過客」一試成「主顧」。\r\n\r\n&nbsp;&nbsp; &nbsp; &nbsp; &nbsp;除了賣牛肉湯，也賣您濃濃的人情味，歡迎您來喝碗牛肉湯，也跟老闆交個朋友吧！\r\n\r\n推薦特色菜：清燙牛肉湯、牛腩高麗菜、牛肉炒芥藍",
    "open_time": "週一~週日 05:00–14:00",
    "district": "南區",
    "address": "702 臺南市南區中華南路一段 78 號",
    "tel": "+886-932-804479",
    "fax": "",
    "lat": 22.97199,
    "long": 120.2129,
    "services": [],
    "category": [
      "地方小吃"
    ],
    "consume": [
      "美食"
    ],
    "update_time": "2018-12-13 15:41:57"
  },
  {
    "id": 6502,
    "lang": "zh-tw",
    "name": "阿滿牛肉湯",
    "summary": "",
    "introduction": "&nbsp; &nbsp; &nbsp; &nbsp; &nbsp;26 年歷史老店，招牌牛肉湯以牛骨、洋蔥、薑等食材熬煮。另一招牌為清燉牛腩湯，中藥與香料燉製，溫潤口感加上軟嫩牛腩，真是絕配。店內自製自炒豆豉辣椒，熱辣帶尾勁，成為所有喜愛吃辣的饕客到此挑戰的標的。店面雖小，老闆娘親切地招呼，卻也顯得溫暖熱鬧。\r\n\r\n推薦特色菜：紅燒牛肉麵、炒麻油牛肉/牛心/牛肝/牛肚",
    "open_time": "週一~週日 04:00–20:30，週二休息",
    "district": "南區",
    "address": "702 臺南市南區大成路 2 段 31 號",
    "tel": "+886-6-2658532",
    "fax": "",
    "lat": 22.97494,
    "long": 120.19646,
    "services": [],
    "category": [
      "地方小吃"
    ],
    "consume": [
      "美食"
    ],
    "update_time": "2022-12-05 15:28:49"
  },
  {
    "id": 6503,
    "lang": "zh-tw",
    "name": "美鮮牛肉湯",
    "summary": "        坐落於新興區的美新鮮牛肉湯店，湯頭是用純牛大骨熬煮而成，湯頭的口味濃而不膩，老闆娘阿美堅持這純真的味道要讓所有人都分享到，故營業時間持續 24 小時不間斷，讓每個時間的人客都可以品嚐到最純這一味。店裡的牛肉類熱炒，也是老闆娘很推的好味道。\r\n\r\n推薦特色菜：牛肉蛋炒飯\r\n老闆娘限定不加蒜頭的口味，彷彿回到童年的滋味，非常單純的只有牛肉、蛋香與炒油香交融。",
    "introduction": "&nbsp; &nbsp; &nbsp; &nbsp; 坐落於新興區的美新鮮牛肉湯店，湯頭是用純牛大骨熬煮而成，湯頭的口味濃而不膩，老闆娘阿美堅持這純真的味道要讓所有人都分享到，故營業時間持續 24 小時不間斷，讓每個時間的人客都可以品嚐到最純這一味。店裡的牛肉類熱炒，也是老闆娘很推的好味道。\r\n\r\n推薦特色菜：牛肉蛋炒飯\r\n老闆娘限定不加蒜頭的口味，彷彿回到童年的滋味，非常單純的只有牛肉、蛋香與炒油香交融。",
    "open_time": "24HR，週一 11:00-週二 16:00 休息",
    "district": "南區",
    "address": "702 臺南市南區新興路 419-1 號",
    "tel": "+886-932-813566",
    "fax": "",
    "lat": 22.97509,
    "long": 120.19042,
    "services": [],
    "category": [
      "地方小吃"
    ],
    "consume": [
      "美食"
    ],
    "update_time": "2025-02-06 08:26:27"
  },
  {
    "id": 6504,
    "lang": "zh-tw",
    "name": "阿英牛肉湯",
    "summary": "         營業超過 20 年的老店，招牌牛肉湯與牛雜湯，湯頭以大骨、牛腩等食材熬煮 4 小時。牛雜湯吃的到整隻國產牛精華，牛肚、牛腸、草管、板筋，滿滿的牛雜、新鮮好滋味，一嚐即刻成主顧。好料再加碼，點大碗湯贈送牛肉肉燥飯，剁碎的牛肉滷汁淋上熱騰騰白飯，胃口頓時大開。老闆娘特別推薦，清燙鮮牛肉湯麵與芥藍菜炒牛腩，都是在別間牛肉湯店比較少見的喔！！",
    "introduction": "&nbsp; &nbsp; &nbsp; &nbsp; &nbsp;營業超過 20 年的老店，招牌牛肉湯與牛雜湯，湯頭以大骨、牛腩等食材熬煮 4 小時。牛雜湯吃的到整隻國產牛精華，牛肚、牛腸、草管、板筋，滿滿的牛雜、新鮮好滋味，一嚐即刻成主顧。好料再加碼，點大碗湯贈送牛肉肉燥飯，剁碎的牛肉滷汁淋上熱騰騰白飯，胃口頓時大開。老闆娘特別推薦，清燙鮮牛肉湯麵與芥藍菜炒牛腩，都是在別間牛肉湯店比較少見的喔！！",
    "open_time": "週一~週日 10:00–21:30，週二休息",
    "district": "安平區",
    "address": "708 臺南市安平區郡平路 157 號",
    "tel": "+886-6-2996129",
    "fax": "",
    "lat": 22.9891,
    "long": 120.16855,
    "services": [],
    "category": [
      "地方小吃"
    ],
    "consume": [
      "美食"
    ],
    "update_time": "2022-12-05 15:28:43"
  },
  {
    "id": 6505,
    "lang": "zh-tw",
    "name": "文章牛肉湯",
    "summary": "",
    "introduction": "&nbsp; &nbsp; &nbsp; &nbsp; &nbsp;19 年營業歷史，已逐漸轉由第二代年輕老闆接掌。店內強調提供最新鮮品質之溫體牛肉，牛肉湯頭以大量牛腩、牛骨、洋蔥、蔬菜、鳳梨、甘蔗等多種食材加上些許中藥，熬煮出順口溫醇的黃金比例、獨一無二的好味道。用心的老闆也為店家成立網站及臉書粉絲團，讓全國民眾都能輕鬆搜尋到文章牛肉湯的好文章。在此店家更可以吃到夢幻溫體牛舌，經過大火快炒，依然保持著軟嫩多汁口感，是多數行家饕客的最愛。",
    "open_time": "週一~週日 24HR，週一下午 14:00-週二上午 10:00 休息",
    "district": "安平區",
    "address": "708 臺南市安平區安平路 590 號",
    "tel": "+886-6-2284626",
    "fax": "",
    "lat": 22.99875,
    "long": 120.16963,
    "services": [],
    "category": [
      "地方小吃"
    ],
    "consume": [
      "美食"
    ],
    "update_time": "2022-12-05 15:28:41"
  },
  {
    "id": 6508,
    "lang": "zh-tw",
    "name": "阿宏牛肉湯",
    "summary": "",
    "introduction": "&nbsp; &nbsp; &nbsp; &nbsp;營業至今，上至三代，從牛販到牛肉湯店面，亦可稱之最了解本產牛肉湯的專業級牛肉湯店家。招牌牛肉湯，湯頭每日鮮焢，以牛骨、牛腩語獨特秘方做湯底熬製。特製紅燒牛肉/牛腩湯是年輕老闆特別推薦。\r\n&nbsp;&nbsp; &nbsp; &nbsp; &nbsp;由於自營牛場，自給自宰，新鮮度完全掌握，搭配牛肉湯的肉燥飯，也是手剁現宰豬肉。店內菜單以大黑板粉筆書寫方式呈現，讓用餐民眾彷彿重返青春、置身校園。用餐單點大碗牛肉湯即附贈白飯或肉燥飯一碗。也提供現切溫體牛火鍋肉片，供民眾外帶，在家也可以吃到新鮮的牛肉火鍋。",
    "open_time": "週一~週日 06:30–13:30、17:30–20:30，週二休息",
    "district": "永康區",
    "address": "710 臺南市永康區忠孝路 383-1 號",
    "tel": "+886-6-3035876",
    "fax": "",
    "lat": 23.01827,
    "long": 120.2436,
    "services": [],
    "category": [
      "地方小吃"
    ],
    "consume": [
      "美食"
    ],
    "update_time": "2018-12-13 15:41:57"
  },
  {
    "id": 6511,
    "lang": "zh-tw",
    "name": "閻家土產牛肉湯",
    "summary": "",
    "introduction": "&nbsp; &nbsp; &nbsp; &nbsp; 開業 20 幾年的閻家是土產牛肉專賣店，牛肉高湯是傳統清燉口味，只以大量牛大骨、牛腩去熬，不另加料，金黃色高湯透明清澈，喝的到原汁原味。招牌牛肉火鍋還加入牛腩、番茄、高麗菜、洋蔥等，更添清爽甜每！牛肉湯、牛肉麵、炒牛肉、牛肉燴飯等也都頗受好評，可吃到各種不同的牛肉滋味。",
    "open_time": "週一~週日 06:30-14:00、16:00–20:30，週二休息",
    "district": "仁德區",
    "address": "717 臺南市仁德區中正路一段 271 號 1 樓",
    "tel": "+886-6-3660570",
    "fax": "",
    "lat": 22.92402,
    "long": 120.23908,
    "services": [],
    "category": [
      "地方小吃"
    ],
    "consume": [
      "美食"
    ],
    "update_time": "2022-12-05 15:28:28"
  },
  {
    "id": 6512,
    "lang": "zh-tw",
    "name": "阿生牛肉湯",
    "summary": "",
    "introduction": "&nbsp; &nbsp; &nbsp; &nbsp; &nbsp;本店好吃的料理有許多，有紅燒牛肉麵，精製牛骨高湯等。味鮮純清湯的牛肉，吃起來滋味鮮甜美味，除清燙牛肉湯外，老闆還推薦招牌的「紅燒牛肉湯」，值得饕客用心品嚐的好味道。",
    "open_time": "週一~週日 10:00-19:30，休息時間：不定",
    "district": "關廟區",
    "address": "718 臺南市關廟區中山路 1 段 281 號",
    "tel": "+886-933-673994",
    "fax": "",
    "lat": 22.95928,
    "long": 120.33,
    "services": [],
    "category": [
      "地方小吃"
    ],
    "consume": [
      "美食"
    ],
    "update_time": "2018-12-13 15:41:57"
  },
  {
    "id": 6513,
    "lang": "zh-tw",
    "name": "阿昌牛肉湯",
    "summary": "",
    "introduction": "&nbsp; &nbsp; &nbsp; &nbsp; &nbsp;本在大灣市場內賣了將近二十年的阿昌牛肉湯，挪到中山路店面 13 年，老闆對牛肉湯的品質堅持，現在換第二代接棒，期許代代傳承。\r\n&nbsp;&nbsp; &nbsp; &nbsp; &nbsp;點一碗牛肉湯附上一碗飯，先挾牛肉沾醬配在飯上吃，行家吃法。新鮮國產強調現宰現做，牛骨熬湯不加任何調劑，加一點米酒風味更佳。特選里肌邊肉，每天凌晨四點準備處理不要的肥肉，粗獷的常客：「每天三餐光臨」老闆：「有的客人一次吃四碗」驕傲的說著招牌不油膩湯頭深得當地居民喜歡。",
    "open_time": "週一~週日 07:00–20:00，週二休息",
    "district": "關廟區",
    "address": "718 臺南市關廟區巡府路 73 號",
    "tel": "+886-6-5959113",
    "fax": "",
    "lat": 22.96059,
    "long": 120.32737,
    "services": [],
    "category": [
      "地方小吃"
    ],
    "consume": [
      "美食"
    ],
    "update_time": "2022-12-05 15:28:25"
  },
  {
    "id": 6518,
    "lang": "zh-tw",
    "name": "其森牛肉湯",
    "summary": "",
    "introduction": "&nbsp; &nbsp; &nbsp; &nbsp; &nbsp;一碗牛肉湯 + 肉燥飯、魯蛋吃到飽只要「100 元」！！經營 13 年來，老闆從來沒有調整過價錢，就是要讓客人都能便宜品嚐新鮮的國產牛肉。招牌牛肉湯還能客製化，不論是瘦肉、五花皆能挑選自己喜愛的部位，細心的老闆還會記住熟客喜愛什麼部位的肉，老是被人誇讚他的用心！\r\n&nbsp;&nbsp; &nbsp; &nbsp; &nbsp; 湯頭除了牛大骨還加了牛腩及牛肉熬煮，更加顯現出天然的香氣～超划算的其森牛肉湯，連三立新聞也來採訪過，這樣你怎麼還能錯過！",
    "open_time": "週一~週日 05:00–14:00，週二休息",
    "district": "麻豆區",
    "address": "721 臺南市麻豆區興民街 1 號",
    "tel": "+886-6-5717112",
    "fax": "",
    "lat": 23.1854,
    "long": 120.24506,
    "services": [],
    "category": [
      "地方小吃"
    ],
    "consume": [
      "美食"
    ],
    "update_time": "2022-12-05 15:28:19"
  },
  {
    "id": 6519,
    "lang": "zh-tw",
    "name": "牛狀元牛肉湯",
    "summary": "",
    "introduction": "&nbsp; &nbsp; &nbsp; &nbsp; 店家每天於凌晨三點以大量蔬果熬煮牛肉湯頭，湯頭強調絕無添加味精，以牛腩加入熬煮使湯頭更為鮮甜，由於店家位置於麻豆交流道附近，使其當天現宰的牛肉控制在一小時內送到店裡，讓顧客吃到最新鮮的牛口感，在料理過程中間持不加味精，自然呈現清甜爽口不油膩的絕佳風味。",
    "open_time": "週二~週日 07:00–14:00、17:00–00:00，週一休息",
    "district": "麻豆區",
    "address": "721 臺南市麻豆區麻佳路一段 87-7 號",
    "tel": "+886-6-5719297",
    "fax": "",
    "lat": 23.18434,
    "long": 120.23934,
    "services": [],
    "category": [
      "地方小吃"
    ],
    "consume": [
      "美食"
    ],
    "update_time": "2022-12-05 15:28:16"
  },
  {
    "id": 6520,
    "lang": "zh-tw",
    "name": "阿超牛肉湯",
    "summary": "",
    "introduction": "&nbsp; &nbsp; &nbsp; &nbsp; 阿超牛肉湯開店至今老闆每天都親自去屠宰場兩趟，就是為了拿最新鮮的牛肉，湯汁也堅持使用大骨清燉，講求原汁原味的口感。此外，牛腩的挑選也是一大學問，在老闆的細心挑選之下，半筋半肉的嚼勁剛剛好！並且還可以客製化，要涼拌、要清炒，任君挑選。你要是來到佳里，記得來品嚐看看～",
    "open_time": "週二~週日 11:00–00:00，週一休息",
    "district": "佳里區",
    "address": "722 臺南市佳里區新生路 339 號",
    "tel": "+886-929-107950",
    "fax": "",
    "lat": 23.15982,
    "long": 120.17445,
    "services": [],
    "category": [
      "地方小吃"
    ],
    "consume": [
      "美食"
    ],
    "update_time": "2022-12-05 15:28:13"
  },
  {
    "id": 6521,
    "lang": "zh-tw",
    "name": "順福牛肉湯",
    "summary": "",
    "introduction": "&nbsp; &nbsp; &nbsp; &nbsp; &nbsp; 營業至今逾 20 年頭，店內料理除了有招牌人氣的牛肉湯，種類多樣的熱炒及頂級牛肉料理、各相關部位特色料理等，同樣是許多人來到店裡必點的美食，熱炒類搭配使用的新鮮時蔬，都是每天親自上市場採買，堅持食材品質與新鮮度，讓顧客始終絡繹不絕。",
    "open_time": "週一~週日 02:30–17:00，週二休息",
    "district": "佳里區",
    "address": "722 臺南市佳里區延平路 324 號",
    "tel": "+886-6-7212845",
    "fax": "",
    "lat": 23.16137,
    "long": 120.17844,
    "services": [],
    "category": [
      "地方小吃"
    ],
    "consume": [
      "美食"
    ],
    "update_time": "2024-12-09 13:44:52"
  },
  {
    "id": 6522,
    "lang": "zh-tw",
    "name": "順德土產牛肉湯",
    "summary": "",
    "introduction": "&nbsp; &nbsp; &nbsp; &nbsp; &nbsp;牛肉湯一定要使用最新鮮的牛肉，這是老闆 20 年來的堅持。每天從屠宰場直送兩趟的新鮮牛肉，再淋上用大量的牛大骨與牛筋熬製的高湯後，牛肉略帶鮮紅不老韌，賣相與口感都很棒！順德牛肉湯最大的特色就是老闆娘非常孝敬長者，所以凡市長者來喝牛肉湯，當中的牛肉量皆會「多半兩」！真是非常的「甘心」阿～\r\n\r\n推薦特色菜：清燙牛肉湯、滑蛋牛肉、蔥爆牛肉",
    "open_time": "週一~週日 05:30–15:00，週二休息",
    "district": "學甲區",
    "address": "726 臺南市學甲區民權路 59 號",
    "tel": "+886-6-7820161",
    "fax": "",
    "lat": 23.23126,
    "long": 120.18046,
    "services": [],
    "category": [
      "地方小吃"
    ],
    "consume": [
      "美食"
    ],
    "update_time": "2022-12-05 15:28:09"
  },
  {
    "id": 6523,
    "lang": "zh-tw",
    "name": "福勝牛肉湯",
    "summary": "",
    "introduction": "&nbsp; &nbsp; &nbsp; &nbsp; 位在台南善化的福勝牛肉湯強調店內肉品來自善化肉品市場當天現宰配送的溫體牛肉，湯頭部分是以數十支牛大骨加上牛腩、洋蔥、薑等熬煮十多個小時而成，完全不加味精，呈現鮮甜甘醇的自然風味。\r\n\r\n推薦特色菜：溫體牛肉條肉 (可做火鍋，口感軟 Q，油花分佈綿密)、牛鞭爐 (需前一天預訂)",
    "open_time": "週二～週日 11:00-14:30、16:30-20:00，週一休息",
    "district": "善化區",
    "address": "741 臺南市善化區光復路",
    "tel": "+886-6-5819522",
    "fax": "",
    "lat": 23.12902,
    "long": 120.28569,
    "services": [],
    "category": [
      "地方小吃"
    ],
    "consume": [
      "美食"
    ],
    "update_time": "2025-03-03 08:15:29"
  },
  {
    "id": 6524,
    "lang": "zh-tw",
    "name": "一品牛肉湯",
    "summary": "",
    "introduction": "&nbsp; &nbsp; &nbsp; &nbsp; 曾經自行發過台語專輯的林惠松老闆有機會躍上星路，因老婆非常喜愛台南溫體牛肉進而捨棄唱歌之路投入溫體牛肉菜色研發，研發出來的菜色只要客人品嚐過必定會再光臨，尤其北部及中部民眾下南部時必先事前打電話欲定菜色再到店裡光顧，張瓊姿、郭泰源夫婦及白冰冰也是座上嘉賓。\r\n\r\n推薦特色菜：紅燒牛尾、牛肉涮涮鍋",
    "open_time": "週二~週日 11:00-22:00，週一休息",
    "district": "新市區",
    "address": "744 臺南市新市區中山路 202-4 號",
    "tel": "+886-6-5991882",
    "fax": "",
    "lat": 23.07023,
    "long": 120.29475,
    "services": [],
    "category": [
      "地方小吃"
    ],
    "consume": [
      "美食"
    ],
    "update_time": "2022-12-05 15:28:04"
  },
  {
    "id": 6530,
    "lang": "zh-tw",
    "name": "牛之屋牛肉湯",
    "summary": "",
    "introduction": "&nbsp; &nbsp; &nbsp; &nbsp; &nbsp;位於新化的牛之屋營業迄今已 20 餘年之久，店裡使用半夜三點新鮮直送的牛肉，再經過獨家秘訣的處理，使肉無牛腥味並保持新鮮與軟嫩。店內用餐環境整潔衛生，雖只販售簡單的牛腩湯、牛肉湯與肉燥飯，卻樣樣皆是招牌。採用原味原料熬煮的湯頭，喝起來順口又甘甜；肉燥飯不僅滷得入味更是粒粒分明，真是難以忘懷的好滋味。老闆還偷偷透露有外地遊客包車來品嚐呢～所以若是您到新化來，千萬別忘了來找老闆報到唷！",
    "open_time": "週一~週日 04:00–00:00",
    "district": "新化區",
    "address": "712 臺南市新化區復興路 222 號",
    "tel": "+886-6-5904318",
    "fax": "",
    "lat": 23.03419,
    "long": 120.31115,
    "services": [],
    "category": [
      "地方小吃"
    ],
    "consume": [
      "美食"
    ],
    "update_time": "2021-03-04 12:00:11"
  },
  {
    "id": 6531,
    "lang": "zh-tw",
    "name": "宇牛肉湯",
    "summary": "",
    "introduction": "&nbsp; &nbsp; &nbsp; &nbsp; 開幕至今雖營運只有幾年，但老闆的父親位於肉品市場上班，秉持著牛肉絕對新鮮口號進而吸引眾多每天必定前來品嚐的客人，店內所熬高湯是用牛大骨及店內秘方所特別製作的，甘醇爽口。另外有許多招牌菜，像是熱炒牛骨髓、蔥爆牛肉或是青椒炒牛肉，讓人忍不住食指大動，口水直流。\r\n推薦特色菜：熱炒牛骨髓 (老闆推薦加牛肉)、頂級五花肉 (10 點前即售完)",
    "open_time": "週一~週日 03:00–21:30，週二休息",
    "district": "安南區",
    "address": "709 臺南市安南區安中路一段 968 號",
    "tel": "+886-989-207446",
    "fax": "",
    "lat": 23.04509,
    "long": 120.19219,
    "services": [],
    "category": [
      "中式美食"
    ],
    "consume": [
      "美食"
    ],
    "update_time": "2022-12-05 15:27:54"
  },
  {
    "id": 6533,
    "lang": "zh-tw",
    "name": "小北牛肉湯",
    "summary": "",
    "introduction": "&nbsp; &nbsp; &nbsp; &nbsp; &nbsp;小北牛肉湯原為阿枝牛肉湯總店，位於小北商圈 A85 攤位，湯頭採用牛肉、牛骨、甘蔗汁等食材熬煮，帶出牛肉的甜味與香氣，喝起來舒服又順口。每碗湯的牛肉大量又大片，而且點牛肉湯就免費附白飯，根本就是「俗擱大碗」，老闆娘說雖然原物料上漲，但仍不計成本，只希望將最健康、最單純的原味呈現給客戶。\r\n推薦特色菜：上肉湯、花肉湯、牛肉切盤",
    "open_time": "週二~週日 06:00–14:00、16:30–20:00，週一休息",
    "district": "北區",
    "address": "704 臺南市北區西門路 4 段 65 巷 85 號",
    "tel": "+886-6-2514600",
    "fax": "",
    "lat": 23.00825,
    "long": 120.20483,
    "services": [],
    "category": [
      "地方小吃"
    ],
    "consume": [
      "美食"
    ],
    "update_time": "2022-12-05 15:27:48"
  },
  {
    "id": 8041,
    "lang": "zh-tw",
    "name": "陳記善化牛肉湯",
    "summary": "",
    "introduction": "\r\n「善化陳記牛肉湯」的牛肉，跟多數牛肉湯店一樣，是來自善化屠宰場的國產溫體牛肉，但不一樣的是，透過老闆陳進義夫婦倆精準的刀工，搭上獨門的湯頭之後，便有著吸引正多老饕前來品嚐的魔力。\r\n&nbsp;\r\n\r\n清燙的牛肉，趁著肉質還呈現鮮嫩的粉紅色的時候，是最好吃的了！沾點豆瓣醬、醬油，還有絕對不能少的薑絲，肉片絕對是入口即化，讓人不上癮也難。一口牛肉、一口白飯，再喝一口湯，特別是在清晨時刻，總是能瞬間補充體力、讓人精神飽滿！除了牛肉湯可供選擇之外，還有一些滷味可以當配菜，像是滷牛腱、牛肚等，這可是在一般的牛肉攤店吃不到的呢！\r\n&nbsp;\r\n牛肉攤從清晨五點半就開始營業，新鮮現賣，當然也販賣著新鮮的溫體牛肉，供各位饕客挑選回家自個兒料理，不過數量有限，賣完為止，所以想吃到道地的灣裡菜市場牛肉湯，想買得到極致的新鮮牛肉，趁早就對了！",
    "open_time": "星期日 05:30-13:00\r\n星期一 05:30-13:00\r\n星期二 公休\r\n星期三 05:30-13:00\r\n星期四 05:30-13:00\r\n星期五 05:30-13:00\r\n星期六 05:30-13:00",
    "district": "南區",
    "address": "702 臺南市南區灣裡路 209 號 (灣裡市場內)",
    "tel": "",
    "fax": "",
    "lat": 22.92856,
    "long": 120.18201,
    "services": [],
    "category": [
      "地方小吃",
      "中式美食"
    ],
    "consume": [
      "美食"
    ],
    "update_time": "2022-12-05 15:47:44"
  },
  {
    "id": 8509,
    "lang": "zh-tw",
    "name": "鴻品牛肉湯市政府店",
    "summary": "",
    "introduction": "台南美食少不了牛肉湯和溫體牛肉火鍋。誰說牛肉湯就是小吃店。您擁有更棒的選擇。小吃的價格餐廳的格局與服務，百坪旗艦店，20 多年老經驗滿足您味蕾！",
    "open_time": "",
    "district": "中西區",
    "address": "700 臺南市中西區中華西路二段 50 號",
    "tel": "06-2930350",
    "fax": "",
    "lat": 22.99358,
    "long": 120.18691,
    "services": [
      "餐飲",
      "外帶服務"
    ],
    "category": [
      "地方小吃",
      "中式美食",
      "安心餐廳"
    ],
    "consume": [
      "美食"
    ],
    "update_time": "2023-05-24 17:47:17"
  },
  {
    "id": 9124,
    "lang": "zh-tw",
    "name": "鬍鬚忠牛肉湯",
    "summary": "",
    "introduction": "每日固定新鮮牛肉，絕無冷凍牛肉，讓顧客吃得安心，湯底採大量牛大骨，洋蔥熬製 8 小時而成。",
    "open_time": "",
    "district": "中西區",
    "address": "700 臺南市中西區民族路三段 91 號",
    "tel": "0981806981",
    "fax": "",
    "lat": 22.9983798,
    "long": 120.1969202,
    "services": [
      "餐飲",
      "外帶服務"
    ],
    "category": [
      "地方小吃",
      "中式美食",
      "安心餐廳"
    ],
    "consume": [
      "美食"
    ],
    "update_time": "2023-05-19 11:39:07"
  }
]